{
    "type": "FeatureCollection",
    "features": [
        {
            "type": "Feature",
            "geometry": {
                "type": "Point",
                "coordinates": [
                    29.044532000000007,
                    41.078133,
                    0
                ]
            },
            "properties": {
                "name": "brewery",
                "styleUrl": "#icon-503-3F5BA9",
                "styleHash": "2e5c9538",
                "description": "Taps Bebek"
            }
        },
        {
            "type": "Feature",
            "geometry": {
                "type": "Point",
                "coordinates": [
                    28.978326000000038,
                    41.024603,
                    0
                ]
            },
            "properties": {
                "name": "cafe",
                "styleUrl": "#icon-503-0BA9CC",
                "styleHash": "2656bf8",
                "description": "Dem Karaköy"
            }
        },
        {
            "type": "Feature",
            "geometry": {
                "type": "Point",
                "coordinates": [
                    29.025202000000036,
                    41.047559,
                    0
                ]
            },
            "properties": {
                "name": "restaurant/aperitivo",
                "styleUrl": "#icon-503-F9F7A6",
                "styleHash": "-3a6fc4a8",
                "description": "Banyan Restaurant"
            }
        },
        {
            "type": "Feature",
            "geometry": {
                "type": "Point",
                "coordinates": [
                    29.03527699999995,
                    41.059566,
                    0
                ]
            },
            "properties": {
                "name": "winery",
                "styleUrl": "#icon-503-C6A4CF",
                "styleHash": "4e63f658",
                "description": "Incirli Şaraphane"
            }
        },
        {
            "type": "Feature",
            "geometry": {
                "type": "Point",
                "coordinates": [
                    28.973286000000034,
                    41.023969,
                    0
                ]
            },
            "properties": {
                "name": "library/research",
                "styleUrl": "#icon-503-CDDC39",
                "styleHash": "6f18f5f8",
                "description": "SALT Galata"
            }
        },
        {
            "type": "Feature",
            "geometry": {
                "type": "Point",
                "coordinates": [
                    28.973928,
                    41.025316,
                    0
                ]
            },
            "properties": {
                "name": "live music",
                "styleUrl": "#icon-503-FFDD5E",
                "styleHash": "542a2b8",
                "description": "Nardis Jazz Club"
            }
        },
        {
            "type": "Feature",
            "geometry": {
                "type": "Point",
                "coordinates": [
                    29.039801000000015,
                    40.98241,
                    0
                ]
            },
            "properties": {
                "name": "live music",
                "styleUrl": "#icon-503-FFDD5E",
                "styleHash": "542a2b8",
                "description": "Mekan Kalamış The Jazz Room"
            }
        },
        {
            "type": "Feature",
            "geometry": {
                "type": "Point",
                "coordinates": [
                    29.027712999999945,
                    40.990185,
                    0
                ]
            },
            "properties": {
                "name": "live music",
                "styleUrl": "#icon-503-FFDD5E",
                "styleHash": "542a2b8",
                "description": "Shaft Club"
            }
        },
        {
            "type": "Feature",
            "geometry": {
                "type": "Point",
                "coordinates": [
                    28.971981000000024,
                    41.028325,
                    0
                ]
            },
            "properties": {
                "name": "live music",
                "styleUrl": "#icon-503-FFDD5E",
                "styleHash": "542a2b8",
                "description": "Salon Iksv"
            }
        },
        {
            "type": "Feature",
            "geometry": {
                "type": "Point",
                "coordinates": [
                    28.980860699999997,
                    41.0567187,
                    0
                ]
            },
            "properties": {
                "name": "market",
                "styleUrl": "#icon-503-E6EEA3",
                "styleHash": "-55cebde8",
                "description": "şişli organik pazar"
            }
        },
        {
            "type": "Feature",
            "geometry": {
                "type": "Point",
                "coordinates": [
                    29.0004086,
                    41.0487413,
                    0
                ]
            },
            "properties": {
                "name": "market",
                "styleUrl": "#icon-503-E6EEA3",
                "styleHash": "-55cebde8",
                "description": "beşiktaş market"
            }
        },
        {
            "type": "Feature",
            "geometry": {
                "type": "Point",
                "coordinates": [
                    29.0083212,
                    41.0441251,
                    0
                ]
            },
            "properties": {
                "name": "tesi",
                "styleUrl": "#icon-503-D698AD",
                "styleHash": "3147acb8",
                "description": "Frederich Ebert Institute"
            }
        },
        {
            "type": "Feature",
            "geometry": {
                "type": "Point",
                "coordinates": [
                    28.985898000000017,
                    41.057568,
                    0
                ]
            },
            "properties": {
                "name": "tesi",
                "styleUrl": "#icon-503-D698AD",
                "styleHash": "3147acb8",
                "description": "Disk Genel Merkez"
            }
        },
        {
            "type": "Feature",
            "geometry": {
                "type": "Point",
                "coordinates": [
                    28.98622879999994,
                    41.0555021,
                    0
                ]
            },
            "properties": {
                "name": "tesi",
                "styleUrl": "#icon-503-D698AD",
                "styleHash": "3147acb8",
                "description": "Disk Yapı-İş"
            }
        },
        {
            "type": "Feature",
            "geometry": {
                "type": "Point",
                "coordinates": [
                    29.002491999999965,
                    41.042898,
                    0
                ]
            },
            "properties": {
                "name": "winery",
                "styleUrl": "#icon-503-C6A4CF",
                "styleHash": "4e63f658",
                "description": "Corvus Wine & Bite"
            }
        },
        {
            "type": "Feature",
            "geometry": {
                "type": "Point",
                "coordinates": [
                    28.959043999999945,
                    41.024697,
                    0
                ]
            },
            "properties": {
                "name": "restaurant/aperitivo",
                "styleUrl": "#icon-503-F9F7A6",
                "styleHash": "-3a6fc4a8",
                "description": "İstanbul Culinary Institute (Enstitü)"
            }
        },
        {
            "type": "Feature",
            "geometry": {
                "type": "Point",
                "coordinates": [
                    28.975902000000023,
                    41.032423,
                    0
                ]
            },
            "properties": {
                "name": "Fıccın Restoran",
                "styleUrl": "#icon-503-795046-nodesc",
                "styleHash": "356743e7"
            }
        },
        {
            "type": "Feature",
            "geometry": {
                "type": "Point",
                "coordinates": [
                    28.97790699999996,
                    41.032343000000004,
                    0
                ]
            },
            "properties": {
                "name": "Litera",
                "styleUrl": "#icon-503-B7DBAB-nodesc",
                "styleHash": "625cb77d"
            }
        },
        {
            "type": "Feature",
            "geometry": {
                "type": "Point",
                "coordinates": [
                    28.97361799999999,
                    41.023619,
                    0
                ]
            },
            "properties": {
                "name": "Galata La Bella Hotel",
                "styleUrl": "#icon-503-A7B5D7-nodesc",
                "styleHash": "49621ad"
            }
        },
        {
            "type": "Feature",
            "geometry": {
                "type": "Point",
                "coordinates": [
                    28.984445000000047,
                    41.026647,
                    0
                ]
            },
            "properties": {
                "name": "Istanbul Museum of Modern Art",
                "styleUrl": "#icon-503-F4B400-nodesc",
                "styleHash": "-38c5a19b"
            }
        },
        {
            "type": "Feature",
            "geometry": {
                "type": "Point",
                "coordinates": [
                    29.052458999999995,
                    41.050196,
                    0
                ]
            },
            "properties": {
                "name": "Cinaralti Aile Cay Bahcesi",
                "styleUrl": "#icon-503-A61B4A-nodesc",
                "styleHash": "-ebc8c1"
            }
        },
        {
            "type": "Feature",
            "geometry": {
                "type": "Point",
                "coordinates": [
                    28.975270000000023,
                    41.0325,
                    0
                ]
            },
            "properties": {
                "name": "Buyuk Londra Hotel",
                "styleUrl": "#icon-503-9FC3FF-nodesc",
                "styleHash": "-156b515"
            }
        },
        {
            "type": "Feature",
            "geometry": {
                "type": "Point",
                "coordinates": [
                    28.94691899999998,
                    41.033429,
                    0
                ]
            },
            "properties": {
                "name": "AGORA Meyhanesi 1890",
                "styleUrl": "#icon-503-F8971B-nodesc",
                "styleHash": "-396ff9d"
            }
        },
        {
            "type": "Feature",
            "geometry": {
                "type": "Point",
                "coordinates": [
                    28.949598000000037,
                    41.029264,
                    0
                ]
            },
            "properties": {
                "name": "Church of St. Mary of the Mongols",
                "styleUrl": "#icon-503-009D57-nodesc",
                "styleHash": "109207cb"
            }
        },
        {
            "type": "Feature",
            "geometry": {
                "type": "Point",
                "coordinates": [
                    29.055992999999944,
                    41.084637,
                    0
                ]
            },
            "properties": {
                "name": "Rumelihisarı",
                "styleUrl": "#icon-503-4186F0-nodesc",
                "styleHash": "214a291b"
            }
        }
    ]
}